name,city,lat,lng
"Главный (Москва)",Москва,55.8122,37.7123
"Южный (Краснодар)",Краснодар,45.0511,39.0234
"Уральский (Екатеринбург)",Екатеринбург,56.7845,60.6821
"Сибирский (Красноярск)",Красноярск,56.0522,92.9645
"Восточный (Владивосток)",Владивосток,43.1654,131.9432